"","date","date_end","site","site_name","variable","value","network_id","longitude","latitude","site_type","database_name"
"1",2016-08-15,2016-08-16,"ay1","Aylesbury Walton Street 2","no2",32.751563,"aqe",-0.808084,51.812443,"roadside","aqengland"
"2",2016-08-15,2016-08-16,"bai2","Birmingham Airport 2","no2",26.45625,"aqe",-1.743912,52.455719,"airport","aqengland"
"3",2016-08-15,2016-08-16,"bar6","Barnsley A628 Pogmoor Roadside","no2",28.6875,"aqe",-1.50816,53.551177,"roadside","aqengland"
"4",2016-08-15,2016-08-16,"bn1","Tally Ho","no2",25.5,"aqe",-0.176607,51.614675,"kerbside","aqengland"
"5",2016-08-15,2016-08-16,"bn2","London Barnet Chalgrove School","no2",14.98125,"aqe",-0.205992,51.591901,"urban_background","aqengland"
"6",2016-08-15,2016-08-16,"bur1","Bury Radcliffe","no2",32.671875,"aqe",-2.330732,53.563481,"roadside","aqengland"
"7",2016-08-15,2016-08-16,"bur2","Bury Prestwich","no2",43.66875,"aqe",-2.277565,53.524915,"roadside","aqengland"
"8",2016-08-15,2016-08-16,"cam1","Cambridge Parker Street","no2",16.415625,"aqe",0.127483,52.204133,"roadside","aqengland"
"9",2016-08-15,2016-08-16,"cam3","Cambridge Gonville Place","no2",13.307813,"aqe",0.12774,52.199575,"roadside","aqengland"
"10",2016-08-15,2016-08-16,"cam4","Cambridge Newmarket Road","no2",19.707065,"aqe",0.141521,52.20843,"roadside","aqengland"
"11",2016-08-15,2016-08-16,"cam5","Cambridge Montague Road","no2",14.184375,"aqe",0.138083,52.21393,NA,"aqengland"
"12",2016-08-15,2016-08-16,"crl2","Carlisle Stanwix Bank","no2",14.821875,"aqe",-2.937022,54.90455,"roadside","aqengland"
"13",2016-08-15,2016-08-16,"em1","East Midlands Airport","no2",11.475,"aqe",-1.345222,52.833277,"airport","aqengland"
"14",2016-08-15,2016-08-16,"ewe2","Ewell High Street","no2",14.423438,"aqe",-0.249748,51.349927,"roadside","aqengland"
"15",2016-08-15,2016-08-16,"far1","Gosport Road","no2",50.68125,"aqe",-1.183323,50.844177,"roadside","aqengland"
"16",2016-08-15,2016-08-16,"far2","Fareham Portland Street","no2",36.576563,"aqe",-1.17806,50.850875,"roadside","aqengland"
"17",2016-08-15,2016-08-16,"ga1","Gateshead A1 Dunston","no2",31.078125,"aqe",-1.649945,54.951529,"roadside","aqengland"
"18",2016-08-15,2016-08-16,"ga2","Gateshead Bottle Bank","no2",41.198438,"aqe",-1.604438,54.965944,"roadside","aqengland"
"19",2016-08-15,2016-08-16,"ga3","Gateshead Lychgate Court","no2",13.70625,"aqe",-1.597121,54.962008,"roadside","aqengland"
"20",2016-08-15,2016-08-16,"girt","Girton Road","no2",8.048438,"aqe",0.087222,52.225556,"roadside","aqengland"
"21",2016-08-15,2016-08-16,"gos1","Tichborne Way","no2",23.109375,"aqe",-1.163939,50.821611,"roadside","aqengland"
"22",2016-08-15,2016-08-16,"gx","South Bucks Gerrards Cross","no2",16.131522,"aqe",-0.533309,51.574108,NA,"aqengland"
"23",2016-08-15,2016-08-16,"hen","Henley","no2",22.232813,"aqe",-0.903958,51.536552,"roadside","aqengland"
"24",2016-08-15,2016-08-16,"hi1","Hillingdon 1 - South Ruislip","no2",51.803804,"aqe",-0.40278,51.55226,"roadside","aqengland"
"25",2016-08-15,2016-08-16,"hi3","London Hillingdon Oxford Avenue","no2",25.5,"aqe",-0.42376,51.48113,"urban_centre","aqengland"
"26",2016-08-15,2016-08-16,"hil1","London Hillingdon Harmondsworth","no2",22.153125,"aqe",-0.480984,51.487989,NA,"aqengland"
"27",2016-08-15,2016-08-16,"hil5","London Hillingdon Hayes","no2",62.779891,"aqe",-0.412333,51.498167,"roadside","aqengland"
"28",2016-08-15,2016-08-16,"hs2","Hounslow Cranford","no2",26.296875,"aqe",-0.411895,51.482982,"roadside","aqengland"
"29",2016-08-15,2016-08-16,"hs4","Hounslow Chiswick","no2",39.84375,"aqe",-0.257252,51.492507,"roadside","aqengland"
"30",2016-08-15,2016-08-16,"hs5","Hounslow Brentford","no2",37.214063,"aqe",-0.310081,51.489398,"roadside","aqengland"
"31",2016-08-15,2016-08-16,"hs6","Hounslow Heston","no2",41.357813,"aqe",-0.36476,51.479129,"roadside","aqengland"
"32",2016-08-15,2016-08-16,"hs7","Hounslow Hatton Cross","no2",17.610938,"aqe",-0.427525,51.463402,"urban_background","aqengland"
"33",2016-08-15,2016-08-16,"hs8","Hounslow Gunnersbury","no2",54.455921,"aqe",-0.284383,51.500676,"roadside","aqengland"
"34",2016-08-15,2016-08-16,"hs9","Hounslow Feltham","no2",29.484375,"aqe",-0.408733,51.447388,"roadside","aqengland"
"35",2016-08-15,2016-08-16,"imp","S Cambs Impington","no2",28.528125,"aqe",0.10508,52.23364,"roadside","aqengland"
"36",2016-08-15,2016-08-16,"lgw3","Gatwick LGW3","no2",32.19375,"aqe",-0.161058,51.151495,"airport","aqengland"
"37",2016-08-15,2016-08-16,"lhr2","Heathrow LHR2","no2",36.919565,"aqe",-0.440556,51.479167,"airport","aqengland"
"38",2016-08-15,2016-08-16,"m60","Salford M60","no2",54.030117,"aqe",-2.381239,53.503784,"roadside","aqengland"
"39",2016-08-15,2016-08-16,"man1","Manchester Oxford Road","no2",35.859375,"aqe",-2.237572,53.471802,"kerbside","aqengland"
"40",2016-08-15,2016-08-16,"monk","Spalding Monkhouse School","no2",3.585938,"aqe",-0.175053,52.785625,NA,"aqengland"
"41",2016-08-15,2016-08-16,"new2","Cam Road","no2",14.503125,"aqe",-0.002138,51.537598,NA,"aqengland"
"42",2016-08-15,2016-08-16,"new3","Wren Close","no2",18.16875,"aqe",0.014554,51.514727,NA,"aqengland"
"44",2016-08-15,2016-08-16,"orch","S Cambs Orchard Park School","no2",7.490625,"aqe",0.115229,52.2335,"urban_background","aqengland"
"45",2016-08-15,2016-08-16,"ox6","Oxford High St","no2",52.38587,"aqe",-1.250939,51.752527,"roadside","aqengland"
"46",2016-08-15,2016-08-16,"rea2","Reading Caversham Road","no2",52.59375,"aqe",-0.977094,51.464355,NA,"aqengland"
"47",2016-08-15,2016-08-16,"rea4","Reading Oxford Road","no2",26.775,"aqe",-1.012459,51.461957,NA,"aqengland"
"48",2016-08-15,2016-08-16,"red3","Redcar Dormanstown","no2",4.621875,"aqe",-1.09784,54.60317,"urban_industrial","aqengland"
"49",2016-08-15,2016-08-16,"scw2","Suffolk Coastal Woodbridge 2","no2",33.7875,"aqe",1.316564,51.959919,NA,"aqengland"
"50",2016-08-15,2016-08-16,"shol","South Holland Westmere School","no2",9.24375,"aqe",0.181633,52.772975,"rural","aqengland"
"51",2016-08-15,2016-08-16,"sips","Sipson","no2",31.317188,"aqe",-0.455695,51.484384,"urban_background","aqengland"
"52",2016-08-15,2016-08-16,"slh3","Slough Colnbrook","no2",34.508152,"aqe",-0.508729,51.480372,"urban_background","aqengland"
"53",2016-08-15,2016-08-16,"slh4","Slough Town Centre A4","no2",31.795313,"aqe",-0.607794,51.511599,"urban_background","aqengland"
"54",2016-08-15,2016-08-16,"slh7","Slough Chalvey","no2",45.979688,"aqe",-0.608653,51.502202,"roadside","aqengland"
"55",2016-08-15,2016-08-16,"slh8","Slough Lakeside 2","no2",40.328804,"aqe",-0.502656,51.487764,NA,"aqengland"
"56",2016-08-15,2016-08-16,"sta3","Stansted 3","no2",6.135938,"aqe",0.264444,51.886944,"airport","aqengland"
"57",2016-08-15,2016-08-16,"sta4","Stansted 4","no2",13.039773,"aqe",0.264722,51.896944,"airport","aqengland"
"58",2016-08-15,2016-08-16,"stk5","Stockport Hazel Grove","no2",32.671875,"aqe",-2.129559,53.38547,NA,"aqengland"
"60",2016-08-15,2016-08-16,"sun4","Sunderland Trimdon Street","no2",14.503125,"aqe",-1.394195,54.907415,"kerbside","aqengland"
"61",2016-08-15,2016-08-16,"t54","Heathrow Oaks Road","no2",33.7875,"aqe",-0.479444,51.459444,"airport","aqengland"
"62",2016-08-15,2016-08-16,"t55","Heathrow Green Gates","no2",29.085938,"aqe",-0.486675,51.481478,"airport","aqengland"
"63",2016-08-15,2016-08-16,"tam1","Tameside Mottram Moor","no2",55.382813,"aqe",-2.005694,53.458994,"roadside","aqengland"
"64",2016-08-15,2016-08-16,"tame","Tameside Two Trees School","no2",10.598438,"aqe",-2.098802,53.445847,"urban_background","aqengland"
"65",2016-08-15,2016-08-16,"traf","Trafford","no2",24.225,"aqe",-2.320941,53.448876,"urban_background","aqengland"
"66",2016-08-15,2016-08-16,"trf2","Trafford A56","no2",29.404688,"aqe",-2.311421,53.442476,"roadside","aqengland"
"67",2016-08-15,2016-08-16,"wat","Watlington","no2",25.61087,"aqe",-1.004394,51.645112,"roadside","aqengland"
"69",2016-08-15,2016-08-16,"wid2","Widnes Marzahn Way","no2",29.64375,"aqe",-2.722289,53.371193,"kerbside","aqengland"
"70",2016-08-15,2016-08-16,"wil3","Devizes, Sidmouth Street","no2",33.707813,"aqe",-1.990416,51.352198,"roadside","aqengland"
"71",2016-08-15,2016-08-16,"wil4","Salisbury, Exeter Street","no2",29.404688,"aqe",-1.793793,51.065247,"roadside","aqengland"
"72",2016-08-15,2016-08-16,"wil8","Calne London Road","no2",23.746875,"aqe",-2.00255,51.43534,"roadside","aqengland"
"73",2016-08-15,2016-08-16,"wl1","Waltham Forest Dawlish Rd","no2",16.335938,"aqe",-0.004898,51.562376,"urban_background","aqengland"
"74",2016-08-15,2016-08-16,"wl4","Waltham Crooked Billet","no2",45.58125,"aqe",-0.016442,51.601728,"kerbside","aqengland"
"75",2016-08-15,2016-08-16,"wl5","Waltham Forest Leyton","no2",18.567188,"aqe",-0.013628,51.556239,"roadside","aqengland"
"76",2016-08-15,2016-08-16,"wsto","Wycombe Stokenchurch","no2",11.79375,"aqe",-0.894158,51.652503,NA,"aqengland"
"77",2016-08-15,2016-08-16,"wya4","Wycombe Abbey 4","no2",21.196875,"aqe",-0.75436,51.624072,"urban_background","aqengland"
"78",2016-08-15,2016-08-16,"yk10","York Bootham","no2",9.989915,"aqe",-1.086538,53.967646,"roadside","aqengland"
"79",2016-08-15,2016-08-16,"yk13","York Heworth Green","no2",20.71875,"aqe",-1.070219,53.965951,"roadside","aqengland"
"80",2016-08-15,2016-08-16,"yk15","York Nunnery Lane","no2",29.085938,"aqe",-1.086275,53.953411,"roadside","aqengland"
"81",2016-08-15,2016-08-16,"yk16","York Fulford Road","no2",12.510938,"aqe",-1.073861,53.937787,"roadside","aqengland"
"82",2016-08-15,2016-08-16,"yk7","York Gillygate","no2",23.985938,"aqe",-1.085679,53.963805,"roadside","aqengland"
"83",2016-08-15,2016-08-16,"yk8","York Holgate","no2",29.484375,"aqe",-1.094639,53.954167,"roadside","aqengland"
"84",2016-08-15,2016-08-16,"yk9","York Lawrence Street","no2",33.867188,"aqe",-1.068241,53.954663,"roadside","aqengland"
